header: 
  seq: 389
  stamp: 
    secs: 1517848285
    nsecs: 331533343
  frame_id: world
pose: 
  position: 
    x: -0.834644496441
    y: -0.259812474251
    z: 0.843433618546
  orientation: 
    x: -0.403324097395
    y: 0.229892611504
    z: 0.769689798355
    w: -0.438242733479
---
header: 
  seq: 390
  stamp: 
    secs: 1517848285
    nsecs: 339568972
  frame_id: world
pose: 
  position: 
    x: -0.834644496441
    y: -0.259812474251
    z: 0.843433618546
  orientation: 
    x: -0.403324097395
    y: 0.229892611504
    z: 0.769689798355
    w: -0.438242733479
---
header: 
  seq: 391
  stamp: 
    secs: 1517848285
    nsecs: 348071957
  frame_id: world
pose: 
  position: 
    x: -0.7995647192
    y: -0.254081606865
    z: 0.856638014317
  orientation: 
    x: -0.416237324476
    y: 0.298057109118
    z: 0.763201355934
    w: -0.394248872995
---
header: 
  seq: 392
  stamp: 
    secs: 1517848285
    nsecs: 356473924
  frame_id: world
pose: 
  position: 
    x: -0.792041659355
    y: -0.252832472324
    z: 0.860218763351
  orientation: 
    x: -0.449979692698
    y: 0.218986824155
    z: 0.766303956509
    w: -0.402916073799
---
header: 
  seq: 393
  stamp: 
    secs: 1517848285
    nsecs: 364783520
  frame_id: world
pose: 
  position: 
    x: -0.784576416016
    y: -0.251558303833
    z: 0.863811969757
  orientation: 
    x: -0.527511835098
    y: -0.142911493778
    z: 0.717534780502
    w: -0.431800186634
---
header: 
  seq: 394
  stamp: 
    secs: 1517848285
    nsecs: 372914044
  frame_id: world
pose: 
  position: 
    x: -0.777214825153
    y: -0.250391900539
    z: 0.867694437504
  orientation: 
    x: -0.377367019653
    y: 0.432668566704
    z: 0.745662271976
    w: -0.338201105595
---
header: 
  seq: 395
  stamp: 
    secs: 1517848285
    nsecs: 381472165
  frame_id: world
pose: 
  position: 
    x: -0.76934838295
    y: -0.249531909823
    z: 0.871362268925
  orientation: 
    x: -0.548489153385
    y: -0.25619700551
    z: 0.673680663109
    w: -0.423883408308
---
header: 
  seq: 396
  stamp: 
    secs: 1517848285
    nsecs: 389463122
  frame_id: world
pose: 
  position: 
    x: -0.76934838295
    y: -0.249531894922
    z: 0.871362268925
  orientation: 
    x: -0.548489153385
    y: -0.25619700551
    z: 0.673680663109
    w: -0.423883408308
---
header: 
  seq: 397
  stamp: 
    secs: 1517848285
    nsecs: 397711456
  frame_id: world
pose: 
  position: 
    x: -0.76934838295
    y: -0.249531894922
    z: 0.871362268925
  orientation: 
    x: -0.548489153385
    y: -0.25619700551
    z: 0.673680663109
    w: -0.423883408308
---
header: 
  seq: 398
  stamp: 
    secs: 1517848285
    nsecs: 406172464
  frame_id: world
pose: 
  position: 
    x: -0.76934838295
    y: -0.249531894922
    z: 0.871362268925
  orientation: 
    x: -0.548489153385
    y: -0.25619700551
    z: 0.673680663109
    w: -0.423883408308
---
header: 
  seq: 399
  stamp: 
    secs: 1517848285
    nsecs: 414419075
  frame_id: world
pose: 
  position: 
    x: -0.76934838295
    y: -0.249531894922
    z: 0.871362268925
  orientation: 
    x: -0.548489153385
    y: -0.25619700551
    z: 0.673680663109
    w: -0.423883408308
---
header: 
  seq: 400
  stamp: 
    secs: 1517848285
    nsecs: 422755833
  frame_id: world
pose: 
  position: 
    x: -0.76934838295
    y: -0.249531894922
    z: 0.871362268925
  orientation: 
    x: -0.548489153385
    y: -0.25619700551
    z: 0.673680663109
    w: -0.423883408308
---
header: 
  seq: 401
  stamp: 
    secs: 1517848285
    nsecs: 431199722
  frame_id: world
pose: 
  position: 
    x: -0.76934838295
    y: -0.249531894922
    z: 0.871362268925
  orientation: 
    x: -0.548489153385
    y: -0.25619700551
    z: 0.673680663109
    w: -0.423883408308
---
header: 
  seq: 402
  stamp: 
    secs: 1517848285
    nsecs: 439416363
  frame_id: world
pose: 
  position: 
    x: -0.76934838295
    y: -0.249531894922
    z: 0.871362268925
  orientation: 
    x: -0.548489153385
    y: -0.25619700551
    z: 0.673680663109
    w: -0.423883408308
---
header: 
  seq: 403
  stamp: 
    secs: 1517848285
    nsecs: 447788356
  frame_id: world
pose: 
  position: 
    x: -0.76934838295
    y: -0.249531894922
    z: 0.871362268925
  orientation: 
    x: -0.548489153385
    y: -0.25619700551
    z: 0.673680663109
    w: -0.423883408308
---
header: 
  seq: 404
  stamp: 
    secs: 1517848285
    nsecs: 456507485
  frame_id: world
pose: 
  position: 
    x: -0.698317050934
    y: -0.242360889912
    z: 0.908066093922
  orientation: 
    x: -0.550415337086
    y: 0.0987579375505
    z: 0.748769938946
    w: -0.355856180191
---
header: 
  seq: 405
  stamp: 
    secs: 1517848285
    nsecs: 464625180
  frame_id: world
pose: 
  position: 
    x: -0.698317050934
    y: -0.242360889912
    z: 0.908066093922
  orientation: 
    x: -0.550415337086
    y: 0.0987579375505
    z: 0.748769938946
    w: -0.355856180191
---
header: 
  seq: 406
  stamp: 
    secs: 1517848285
    nsecs: 473007643
  frame_id: world
pose: 
  position: 
    x: -0.681984961033
    y: -0.241952314973
    z: 0.915231823921
  orientation: 
    x: -0.491010963917
    y: 0.291736125946
    z: 0.762844383717
    w: -0.303095519543
---
header: 
  seq: 407
  stamp: 
    secs: 1517848285
    nsecs: 481544390
  frame_id: world
pose: 
  position: 
    x: -0.674035906792
    y: -0.241452947259
    z: 0.918808221817
  orientation: 
    x: -0.491491705179
    y: 0.293362081051
    z: 0.764234781265
    w: -0.297186911106
---
header: 
  seq: 408
  stamp: 
    secs: 1517848285
    nsecs: 489353919
  frame_id: world
pose: 
  position: 
    x: -0.674035906792
    y: -0.241452947259
    z: 0.918808221817
  orientation: 
    x: -0.491491705179
    y: 0.293362081051
    z: 0.764234781265
    w: -0.297186911106
---
header: 
  seq: 409
  stamp: 
    secs: 1517848285
    nsecs: 497703118
  frame_id: world
pose: 
  position: 
    x: -0.674035906792
    y: -0.241452947259
    z: 0.918808221817
  orientation: 
    x: -0.491491705179
    y: 0.293362081051
    z: 0.764234781265
    w: -0.297186911106
---
header: 
  seq: 410
  stamp: 
    secs: 1517848285
    nsecs: 506280381
  frame_id: world
pose: 
  position: 
    x: -0.649761021137
    y: -0.241818472743
    z: 0.927747607231
  orientation: 
    x: -0.556552767754
    y: -0.700391411781
    z: 0.30511328578
    w: -0.32650706172
---
header: 
  seq: 411
  stamp: 
    secs: 1517848285
    nsecs: 514253876
  frame_id: world
pose: 
  position: 
    x: -0.649761021137
    y: -0.241818472743
    z: 0.927747607231
  orientation: 
    x: -0.556552767754
    y: -0.700391411781
    z: 0.30511328578
    w: -0.32650706172
---
header: 
  seq: 412
  stamp: 
    secs: 1517848285
    nsecs: 525228290
  frame_id: world
pose: 
  position: 
    x: -0.633784115314
    y: -0.241674765944
    z: 0.934394836426
  orientation: 
    x: -0.437105566263
    y: 0.398487150669
    z: 0.768657565117
    w: -0.243541553617
---
header: 
  seq: 413
  stamp: 
    secs: 1517848285
    nsecs: 531107957
  frame_id: world
pose: 
  position: 
    x: -0.626315236092
    y: -0.241376504302
    z: 0.936152875423
  orientation: 
    x: -0.437825322151
    y: 0.388876140118
    z: 0.773482859135
    w: -0.24250485003
---
header: 
  seq: 414
  stamp: 
    secs: 1517848285
    nsecs: 539258087
  frame_id: world
pose: 
  position: 
    x: -0.626315236092
    y: -0.241376504302
    z: 0.936152875423
  orientation: 
    x: -0.437825322151
    y: 0.388876140118
    z: 0.773482859135
    w: -0.24250485003
---
header: 
  seq: 415
  stamp: 
    secs: 1517848285
    nsecs: 547775984
  frame_id: world
pose: 
  position: 
    x: -0.626315236092
    y: -0.241376504302
    z: 0.936152875423
  orientation: 
    x: -0.437825322151
    y: 0.388876140118
    z: 0.773482859135
    w: -0.24250485003
---
header: 
  seq: 416
  stamp: 
    secs: 1517848285
    nsecs: 556110758
  frame_id: world
pose: 
  position: 
    x: -0.626315236092
    y: -0.241376504302
    z: 0.936152875423
  orientation: 
    x: -0.437825322151
    y: 0.388876140118
    z: 0.773482859135
    w: -0.24250485003
---
header: 
  seq: 417
  stamp: 
    secs: 1517848285
    nsecs: 564491155
  frame_id: world
pose: 
  position: 
    x: -0.626315236092
    y: -0.241376504302
    z: 0.936152875423
  orientation: 
    x: -0.437825322151
    y: 0.388876140118
    z: 0.773482859135
    w: -0.24250485003
---
header: 
  seq: 418
  stamp: 
    secs: 1517848285
    nsecs: 572587628
  frame_id: world
pose: 
  position: 
    x: -0.626315236092
    y: -0.241376504302
    z: 0.936152875423
  orientation: 
    x: -0.437825322151
    y: 0.388876140118
    z: 0.773482859135
    w: -0.24250485003
---
header: 
  seq: 419
  stamp: 
    secs: 1517848285
    nsecs: 581691908
  frame_id: world
pose: 
  position: 
    x: -0.581982851028
    y: -0.242814660072
    z: 0.942021846771
  orientation: 
    x: -0.588520407677
    y: -0.644996881485
    z: 0.405967622995
    w: -0.269839167595
---
header: 
  seq: 420
  stamp: 
    secs: 1517848285
    nsecs: 590786916
  frame_id: world
pose: 
  position: 
    x: -0.581982851028
    y: -0.242814645171
    z: 0.942021846771
  orientation: 
    x: -0.588520407677
    y: -0.644996881485
    z: 0.405967622995
    w: -0.269839167595
---
header: 
  seq: 421
  stamp: 
    secs: 1517848285
    nsecs: 597807456
  frame_id: world
pose: 
  position: 
    x: -0.566035091877
    y: -0.243548750877
    z: 0.941520988941
  orientation: 
    x: -0.379993915558
    y: 0.328177988529
    z: 0.828218638897
    w: -0.248913303018
---
header: 
  seq: 422
  stamp: 
    secs: 1517848285
    nsecs: 606094123
  frame_id: world
pose: 
  position: 
    x: -0.566035091877
    y: -0.243548750877
    z: 0.941520988941
  orientation: 
    x: -0.379993915558
    y: 0.328177988529
    z: 0.828218638897
    w: -0.248913303018
---
header: 
  seq: 423
  stamp: 
    secs: 1517848285
    nsecs: 614558744
  frame_id: world
pose: 
  position: 
    x: -0.553973913193
    y: -0.245263561606
    z: 0.938053846359
  orientation: 
    x: -0.236849963665
    y: 0.509281158447
    z: 0.798732221127
    w: -0.21578207612
---
header: 
  seq: 424
  stamp: 
    secs: 1517848285
    nsecs: 623053019
  frame_id: world
pose: 
  position: 
    x: -0.547113478184
    y: -0.247179985046
    z: 0.935222923756
  orientation: 
    x: -0.571846544743
    y: -0.654322743416
    z: 0.448563605547
    w: -0.208911418915
---
header: 
  seq: 425
  stamp: 
    secs: 1517848285
    nsecs: 631049785
  frame_id: world
pose: 
  position: 
    x: -0.547113478184
    y: -0.247179985046
    z: 0.935222923756
  orientation: 
    x: -0.571846544743
    y: -0.654322743416
    z: 0.448563605547
    w: -0.208911418915
---
header: 
  seq: 426
  stamp: 
    secs: 1517848285
    nsecs: 639429163
  frame_id: world
pose: 
  position: 
    x: -0.547113478184
    y: -0.247179985046
    z: 0.935222923756
  orientation: 
    x: -0.571846544743
    y: -0.654322743416
    z: 0.448563605547
    w: -0.208911418915
---
header: 
  seq: 427
  stamp: 
    secs: 1517848285
    nsecs: 647951222
  frame_id: world
pose: 
  position: 
    x: -0.52753174305
    y: -0.249262541533
    z: 0.927582919598
  orientation: 
    x: -0.167919963598
    y: 0.500625789165
    z: 0.816990494728
    w: -0.231739580631
---
header: 
  seq: 428
  stamp: 
    secs: 1517848285
    nsecs: 655795961
  frame_id: world
pose: 
  position: 
    x: -0.52753174305
    y: -0.249262541533
    z: 0.927582919598
  orientation: 
    x: -0.167919963598
    y: 0.500625789165
    z: 0.816990494728
    w: -0.231739580631
---
header: 
  seq: 429
  stamp: 
    secs: 1517848285
    nsecs: 664635640
  frame_id: world
pose: 
  position: 
    x: -0.514764606953
    y: -0.251637548208
    z: 0.920365393162
  orientation: 
    x: -0.147835984826
    y: 0.469083249569
    z: 0.835561394691
    w: -0.244831949472
---
header: 
  seq: 430
  stamp: 
    secs: 1517848285
    nsecs: 672746958
  frame_id: world
pose: 
  position: 
    x: -0.514764606953
    y: -0.251637548208
    z: 0.920365393162
  orientation: 
    x: -0.147835984826
    y: 0.469083249569
    z: 0.835561394691
    w: -0.244831949472
---
header: 
  seq: 431
  stamp: 
    secs: 1517848285
    nsecs: 681318399
  frame_id: world
pose: 
  position: 
    x: -0.501464664936
    y: -0.254748851061
    z: 0.91232252121
  orientation: 
    x: -0.0485975593328
    y: 0.547369122505
    z: 0.798762738705
    w: -0.244956195354
---
header: 
  seq: 432
  stamp: 
    secs: 1517848285
    nsecs: 689446989
  frame_id: world
pose: 
  position: 
    x: -0.495558857918
    y: -0.255729019642
    z: 0.908201277256
  orientation: 
    x: -0.151529327035
    y: 0.369759440422
    z: 0.879087209702
    w: -0.259851127863
---
header: 
  seq: 433
  stamp: 
    secs: 1517848285
    nsecs: 698075683
  frame_id: world
pose: 
  position: 
    x: -0.489653110504
    y: -0.257617115974
    z: 0.903519034386
  orientation: 
    x: -0.0194957721978
    y: 0.538826584816
    z: 0.802491784096
    w: -0.255524426699
---
header: 
  seq: 434
  stamp: 
    secs: 1517848285
    nsecs: 706374709
  frame_id: world
pose: 
  position: 
    x: -0.48362404108
    y: -0.259337753057
    z: 0.898700535297
  orientation: 
    x: -0.0185505058616
    y: 0.516972124577
    z: 0.815243244171
    w: -0.260334789753
---
header: 
  seq: 435
  stamp: 
    secs: 1517848285
    nsecs: 714468498
  frame_id: world
pose: 
  position: 
    x: -0.477529525757
    y: -0.260651558638
    z: 0.894210577011
  orientation: 
    x: -0.112890437245
    y: 0.348369807005
    z: 0.892612457275
    w: -0.262939780951
---
header: 
  seq: 436
  stamp: 
    secs: 1517848285
    nsecs: 722889820
  frame_id: world
pose: 
  position: 
    x: -0.471575707197
    y: -0.262815982103
    z: 0.889140844345
  orientation: 
    x: 0.0178552027792
    y: 0.522573232651
    z: 0.810003697872
    w: -0.265504419804
---
header: 
  seq: 437
  stamp: 
    secs: 1517848285
    nsecs: 731301156
  frame_id: world
pose: 
  position: 
    x: -0.46591603756
    y: -0.264747917652
    z: 0.884229898453
  orientation: 
    x: 0.00341353472322
    y: 0.484345436096
    z: 0.832791924477
    w: -0.268058985472
---
header: 
  seq: 438
  stamp: 
    secs: 1517848285
    nsecs: 740122926
  frame_id: world
pose: 
  position: 
    x: -0.45966219902
    y: -0.266495376825
    z: 0.879513025284
  orientation: 
    x: -0.0697489157319
    y: 0.353456914425
    z: 0.895088851452
    w: -0.262715220451
---
header: 
  seq: 439
  stamp: 
    secs: 1517848285
    nsecs: 747944663
  frame_id: world
pose: 
  position: 
    x: -0.453695327044
    y: -0.268533706665
    z: 0.87479108572
  orientation: 
    x: -0.0429801344872
    y: 0.377887070179
    z: 0.886455416679
    w: -0.263725042343
---
header: 
  seq: 440
  stamp: 
    secs: 1517848285
    nsecs: 756279019
  frame_id: world
pose: 
  position: 
    x: -0.447863847017
    y: -0.270800948143
    z: 0.870124459267
  orientation: 
    x: -0.0508070513606
    y: 0.352077931166
    z: 0.897752702236
    w: -0.25980758667
---
header: 
  seq: 441
  stamp: 
    secs: 1517848285
    nsecs: 764663288
  frame_id: world
pose: 
  position: 
    x: -0.442245990038
    y: -0.273099273443
    z: 0.865799069405
  orientation: 
    x: 0.00755821308121
    y: 0.429498881102
    z: 0.863365530968
    w: -0.264714509249
---
header: 
  seq: 442
  stamp: 
    secs: 1517848285
    nsecs: 772944257
  frame_id: world
pose: 
  position: 
    x: -0.43586781621
    y: -0.275371193886
    z: 0.861504554749
  orientation: 
    x: -0.0437617301941
    y: 0.338979750872
    z: 0.904630482197
    w: -0.2546004951
---
header: 
  seq: 443
  stamp: 
    secs: 1517848285
    nsecs: 781326558
  frame_id: world
pose: 
  position: 
    x: -0.429707348347
    y: -0.277808904648
    z: 0.85751748085
  orientation: 
    x: -0.0394878610969
    y: 0.335660845041
    z: 0.906881630421
    w: -0.251670837402
---
header: 
  seq: 444
  stamp: 
    secs: 1517848285
    nsecs: 789520639
  frame_id: world
pose: 
  position: 
    x: -0.42338141799
    y: -0.280367434025
    z: 0.853840112686
  orientation: 
    x: -0.0272801667452
    y: 0.343487143517
    z: 0.904717504978
    w: -0.250516951084
---
header: 
  seq: 445
  stamp: 
    secs: 1517848285
    nsecs: 797824887
  frame_id: world
pose: 
  position: 
    x: -0.42338141799
    y: -0.280367434025
    z: 0.853840112686
  orientation: 
    x: -0.0272801667452
    y: 0.343487143517
    z: 0.904717504978
    w: -0.250516951084
---
header: 
  seq: 446
  stamp: 
    secs: 1517848285
    nsecs: 806132904
  frame_id: world
pose: 
  position: 
    x: -0.410516381264
    y: -0.285725533962
    z: 0.847486197948
  orientation: 
    x: -0.0257367417216
    y: 0.322959721088
    z: 0.914494752884
    w: -0.242351308465
---
header: 
  seq: 447
  stamp: 
    secs: 1517848285
    nsecs: 814341484
  frame_id: world
pose: 
  position: 
    x: -0.410516411066
    y: -0.285725533962
    z: 0.847486197948
  orientation: 
    x: -0.0257367417216
    y: 0.322959721088
    z: 0.914494752884
    w: -0.242351308465
---
header: 
  seq: 448
  stamp: 
    secs: 1517848285
    nsecs: 822756762
  frame_id: world
pose: 
  position: 
    x: -0.410516411066
    y: -0.285725533962
    z: 0.847486197948
  orientation: 
    x: -0.0257367417216
    y: 0.322959721088
    z: 0.914494752884
    w: -0.242351308465
---
header: 
  seq: 449
  stamp: 
    secs: 1517848285
    nsecs: 831740331
  frame_id: world
pose: 
  position: 
    x: -0.410516411066
    y: -0.285725533962
    z: 0.847486197948
  orientation: 
    x: -0.0257367417216
    y: 0.322959721088
    z: 0.914494752884
    w: -0.242351308465
---
header: 
  seq: 450
  stamp: 
    secs: 1517848285
    nsecs: 839358688
  frame_id: world
pose: 
  position: 
    x: -0.410516411066
    y: -0.285725533962
    z: 0.847486197948
  orientation: 
    x: -0.0257367417216
    y: 0.322959721088
    z: 0.914494752884
    w: -0.242351308465
---
header: 
  seq: 451
  stamp: 
    secs: 1517848285
    nsecs: 847852334
  frame_id: world
pose: 
  position: 
    x: -0.410516411066
    y: -0.285725533962
    z: 0.847486197948
  orientation: 
    x: -0.0257367417216
    y: 0.322959721088
    z: 0.914494752884
    w: -0.242351308465
---
header: 
  seq: 452
  stamp: 
    secs: 1517848285
    nsecs: 856097661
  frame_id: world
pose: 
  position: 
    x: -0.410516411066
    y: -0.285725533962
    z: 0.847486197948
  orientation: 
    x: -0.0257367417216
    y: 0.322959721088
    z: 0.914494752884
    w: -0.242351308465
---
header: 
  seq: 453
  stamp: 
    secs: 1517848285
    nsecs: 864437776
  frame_id: world
pose: 
  position: 
    x: -0.410516411066
    y: -0.285725533962
    z: 0.847486197948
  orientation: 
    x: -0.0257367417216
    y: 0.322959721088
    z: 0.914494752884
    w: -0.242351308465
---
header: 
  seq: 454
  stamp: 
    secs: 1517848285
    nsecs: 872787534
  frame_id: world
pose: 
  position: 
    x: -0.410516411066
    y: -0.285725533962
    z: 0.847486197948
  orientation: 
    x: -0.0257367417216
    y: 0.322959721088
    z: 0.914494752884
    w: -0.242351308465
---
header: 
  seq: 455
  stamp: 
    secs: 1517848285
    nsecs: 881117791
  frame_id: world
pose: 
  position: 
    x: -0.410516411066
    y: -0.285725533962
    z: 0.847486197948
  orientation: 
    x: -0.0257367417216
    y: 0.322959721088
    z: 0.914494752884
    w: -0.242351308465
---
header: 
  seq: 456
  stamp: 
    secs: 1517848285
    nsecs: 889495831
  frame_id: world
pose: 
  position: 
    x: -0.410516411066
    y: -0.285725533962
    z: 0.847486197948
  orientation: 
    x: -0.0257367417216
    y: 0.322959721088
    z: 0.914494752884
    w: -0.242351308465
---
header: 
  seq: 457
  stamp: 
    secs: 1517848285
    nsecs: 897899569
  frame_id: world
pose: 
  position: 
    x: -0.330656677485
    y: -0.320948958397
    z: 0.835680544376
  orientation: 
    x: -0.0278125181794
    y: 0.0993528142571
    z: 0.983088433743
    w: -0.151303112507
---
header: 
  seq: 458
  stamp: 
    secs: 1517848285
    nsecs: 906193127
  frame_id: world
pose: 
  position: 
    x: -0.330656677485
    y: -0.320948958397
    z: 0.835680544376
  orientation: 
    x: -0.0278125181794
    y: 0.0993528142571
    z: 0.983088433743
    w: -0.151303112507
---
header: 
  seq: 459
  stamp: 
    secs: 1517848285
    nsecs: 914611984
  frame_id: world
pose: 
  position: 
    x: -0.314945995808
    y: -0.327584415674
    z: 0.837733864784
  orientation: 
    x: -0.00452852947637
    y: 0.0887372866273
    z: 0.986094534397
    w: -0.140437841415
---
header: 
  seq: 460
  stamp: 
    secs: 1517848285
    nsecs: 922623539
  frame_id: world
pose: 
  position: 
    x: -0.314945995808
    y: -0.327584415674
    z: 0.837733864784
  orientation: 
    x: -0.00452852947637
    y: 0.0887372866273
    z: 0.986094534397
    w: -0.140437841415
---
header: 
  seq: 461
  stamp: 
    secs: 1517848285
    nsecs: 933224391
  frame_id: world
pose: 
  position: 
    x: -0.314945995808
    y: -0.327584415674
    z: 0.837733864784
  orientation: 
    x: -0.00452852947637
    y: 0.0887372866273
    z: 0.986094534397
    w: -0.140437841415
---
header: 
  seq: 462
  stamp: 
    secs: 1517848285
    nsecs: 939312140
  frame_id: world
pose: 
  position: 
    x: -0.314945995808
    y: -0.327584415674
    z: 0.837733864784
  orientation: 
    x: -0.00452852947637
    y: 0.0887372866273
    z: 0.986094534397
    w: -0.140437841415
---
header: 
  seq: 463
  stamp: 
    secs: 1517848285
    nsecs: 947402738
  frame_id: world
pose: 
  position: 
    x: -0.314945995808
    y: -0.327584415674
    z: 0.837733864784
  orientation: 
    x: -0.00452852947637
    y: 0.0887372866273
    z: 0.986094534397
    w: -0.140437841415
---
header: 
  seq: 464
  stamp: 
    secs: 1517848285
    nsecs: 956140261
  frame_id: world
pose: 
  position: 
    x: -0.314945995808
    y: -0.327584415674
    z: 0.837733864784
  orientation: 
    x: -0.00452852947637
    y: 0.0887372866273
    z: 0.986094534397
    w: -0.140437841415
---
header: 
  seq: 465
  stamp: 
    secs: 1517848285
    nsecs: 964722812
  frame_id: world
pose: 
  position: 
    x: -0.314945995808
    y: -0.327584415674
    z: 0.837733864784
  orientation: 
    x: -0.00452852947637
    y: 0.0887372866273
    z: 0.986094534397
    w: -0.140437841415
---
header: 
  seq: 466
  stamp: 
    secs: 1517848285
    nsecs: 972849888
  frame_id: world
pose: 
  position: 
    x: -0.314945995808
    y: -0.327584415674
    z: 0.837733864784
  orientation: 
    x: -0.00452852947637
    y: 0.0887372866273
    z: 0.986094534397
    w: -0.140437841415
---
header: 
  seq: 467
  stamp: 
    secs: 1517848285
    nsecs: 981181398
  frame_id: world
pose: 
  position: 
    x: -0.314945995808
    y: -0.327584415674
    z: 0.837733864784
  orientation: 
    x: -0.00452852947637
    y: 0.0887372866273
    z: 0.986094534397
    w: -0.140437841415
---
header: 
  seq: 468
  stamp: 
    secs: 1517848285
    nsecs: 989380289
  frame_id: world
pose: 
  position: 
    x: -0.314945995808
    y: -0.327584415674
    z: 0.837733864784
  orientation: 
    x: -0.00452852947637
    y: 0.0887372866273
    z: 0.986094534397
    w: -0.140437841415
---
header: 
  seq: 469
  stamp: 
    secs: 1517848285
    nsecs: 997560046
  frame_id: world
pose: 
  position: 
    x: -0.314945995808
    y: -0.327584415674
    z: 0.837733864784
  orientation: 
    x: -0.00452852947637
    y: 0.0887372866273
    z: 0.986094534397
    w: -0.140437841415
---
header: 
  seq: 470
  stamp: 
    secs: 1517848286
    nsecs:   5905180
  frame_id: world
pose: 
  position: 
    x: -0.314945995808
    y: -0.327584415674
    z: 0.837733864784
  orientation: 
    x: -0.00452852947637
    y: 0.0887372866273
    z: 0.986094534397
    w: -0.140437841415
---
header: 
  seq: 471
  stamp: 
    secs: 1517848286
    nsecs:  14662055
  frame_id: world
pose: 
  position: 
    x: -0.224239394069
    y: -0.366526335478
    z: 0.867132902145
  orientation: 
    x: -0.452647507191
    y: -0.620898544788
    z: 0.502403080463
    w: 0.39646756649
---
header: 
  seq: 472
  stamp: 
    secs: 1517848286
    nsecs:  24360343
  frame_id: world
pose: 
  position: 
    x: -0.216886758804
    y: -0.369715601206
    z: 0.870433390141
  orientation: 
    x: -0.439239919186
    y: -0.612238109112
    z: 0.518735945225
    w: 0.403913080692
---
header: 
  seq: 473
  stamp: 
    secs: 1517848286
    nsecs:  31324882
  frame_id: world
pose: 
  position: 
    x: -0.209726586938
    y: -0.37295293808
    z: 0.873793780804
  orientation: 
    x: -0.44397598505
    y: -0.615756690502
    z: 0.493925720453
    w: 0.423988848925
---
header: 
  seq: 474
  stamp: 
    secs: 1517848286
    nsecs:  39360379
  frame_id: world
pose: 
  position: 
    x: -0.209726572037
    y: -0.37295293808
    z: 0.873793780804
  orientation: 
    x: -0.44397598505
    y: -0.615756690502
    z: 0.493925720453
    w: 0.423988848925
---
header: 
  seq: 475
  stamp: 
    secs: 1517848286
    nsecs:  47923991
  frame_id: world
pose: 
  position: 
    x: -0.209726572037
    y: -0.37295293808
    z: 0.873793780804
  orientation: 
    x: -0.44397598505
    y: -0.615756690502
    z: 0.493925720453
    w: 0.423988848925
---
header: 
  seq: 476
  stamp: 
    secs: 1517848286
    nsecs:  55968560
  frame_id: world
pose: 
  position: 
    x: -0.209726572037
    y: -0.37295293808
    z: 0.873793780804
  orientation: 
    x: -0.44397598505
    y: -0.615756690502
    z: 0.493925720453
    w: 0.423988848925
---
header: 
  seq: 477
  stamp: 
    secs: 1517848286
    nsecs:  64404783
  frame_id: world
pose: 
  position: 
    x: -0.209726572037
    y: -0.37295293808
    z: 0.873793780804
  orientation: 
    x: -0.44397598505
    y: -0.615756690502
    z: 0.493925720453
    w: 0.423988848925
---
header: 
  seq: 478
  stamp: 
    secs: 1517848286
    nsecs:  72992402
  frame_id: world
pose: 
  position: 
    x: -0.209726572037
    y: -0.37295293808
    z: 0.873793780804
  orientation: 
    x: -0.44397598505
    y: -0.615756690502
    z: 0.493925720453
    w: 0.423988848925
---
header: 
  seq: 479
  stamp: 
    secs: 1517848286
    nsecs:  80916928
  frame_id: world
pose: 
  position: 
    x: -0.209726572037
    y: -0.37295293808
    z: 0.873793780804
  orientation: 
    x: -0.44397598505
    y: -0.615756690502
    z: 0.493925720453
    w: 0.423988848925
---
header: 
  seq: 480
  stamp: 
    secs: 1517848286
    nsecs:  89958369
  frame_id: world
pose: 
  position: 
    x: -0.209726572037
    y: -0.37295293808
    z: 0.873793780804
  orientation: 
    x: -0.44397598505
    y: -0.615756690502
    z: 0.493925720453
    w: 0.423988848925
---
header: 
  seq: 481
  stamp: 
    secs: 1517848286
    nsecs:  97792736
  frame_id: world
pose: 
  position: 
    x: -0.209726572037
    y: -0.37295293808
    z: 0.873793780804
  orientation: 
    x: -0.44397598505
    y: -0.615756690502
    z: 0.493925720453
    w: 0.423988848925
---
header: 
  seq: 482
  stamp: 
    secs: 1517848286
    nsecs: 106165305
  frame_id: world
pose: 
  position: 
    x: -0.152283459902
    y: -0.400087624788
    z: 0.906214177608
  orientation: 
    x: -0.356486856937
    y: -0.576375424862
    z: 0.557677209377
    w: 0.479275137186
---
header: 
  seq: 483
  stamp: 
    secs: 1517848286
    nsecs: 114487966
  frame_id: world
pose: 
  position: 
    x: -0.152283445001
    y: -0.400087624788
    z: 0.906214177608
  orientation: 
    x: -0.356486856937
    y: -0.576375424862
    z: 0.557677209377
    w: 0.479275137186
---
header: 
  seq: 484
  stamp: 
    secs: 1517848286
    nsecs: 122802982
  frame_id: world
pose: 
  position: 
    x: -0.141704618931
    y: -0.405866861343
    z: 0.91321593523
  orientation: 
    x: -0.313724428415
    y: -0.559148490429
    z: 0.610255360603
    w: 0.465315490961
---
header: 
  seq: 485
  stamp: 
    secs: 1517848286
    nsecs: 131341059
  frame_id: world
pose: 
  position: 
    x: -0.136944398284
    y: -0.408525049686
    z: 0.91682446003
  orientation: 
    x: -0.330310344696
    y: -0.569187521935
    z: 0.576332986355
    w: 0.484521508217
---
header: 
  seq: 486
  stamp: 
    secs: 1517848286
    nsecs: 139321238
  frame_id: world
pose: 
  position: 
    x: -0.136944398284
    y: -0.408525049686
    z: 0.91682446003
  orientation: 
    x: -0.330310344696
    y: -0.569187521935
    z: 0.576332986355
    w: 0.484521508217
---
header: 
  seq: 487
  stamp: 
    secs: 1517848286
    nsecs: 148154841
  frame_id: world
pose: 
  position: 
    x: -0.127880275249
    y: -0.413704931736
    z: 0.923683524132
  orientation: 
    x: -0.305168062449
    y: -0.560192883015
    z: 0.603117227554
    w: 0.478859186172
---
header: 
  seq: 488
  stamp: 
    secs: 1517848286
    nsecs: 156130238
  frame_id: world
pose: 
  position: 
    x: -0.12380976975
    y: -0.416227400303
    z: 0.926880061626
  orientation: 
    x: -0.293501764536
    y: -0.555593788624
    z: 0.616337656975
    w: 0.474658101797
---
header: 
  seq: 489
  stamp: 
    secs: 1517848286
    nsecs: 165108689
  frame_id: world
pose: 
  position: 
    x: -0.119987733662
    y: -0.418538510799
    z: 0.930051445961
  orientation: 
    x: -0.311283677816
    y: -0.564160883427
    z: 0.585984230042
    w: 0.491373121738
---
header: 
  seq: 490
  stamp: 
    secs: 1517848286
    nsecs: 172827007
  frame_id: world
pose: 
  position: 
    x: -0.116421207786
    y: -0.420960068703
    z: 0.932872772217
  orientation: 
    x: -0.269137978554
    y: -0.545925080776
    z: 0.644496917725
    w: 0.46276819706
---
header: 
  seq: 491
  stamp: 
    secs: 1517848286
    nsecs: 181064524
  frame_id: world
pose: 
  position: 
    x: -0.11310005188
    y: -0.42315363884
    z: 0.935792922974
  orientation: 
    x: -0.284162133932
    y: -0.55419677496
    z: 0.619475245476
    w: 0.477878928185
---
header: 
  seq: 492
  stamp: 
    secs: 1517848286
    nsecs: 190622915
  frame_id: world
pose: 
  position: 
    x: -0.110036581755
    y: -0.425301253796
    z: 0.938356995583
  orientation: 
    x: -0.279911547899
    y: -0.552855610847
    z: 0.624076128006
    w: 0.475950747728
---
header: 
  seq: 493
  stamp: 
    secs: 1517848286
    nsecs: 197958191
  frame_id: world
pose: 
  position: 
    x: -0.110036566854
    y: -0.425301253796
    z: 0.938356995583
  orientation: 
    x: -0.279911547899
    y: -0.552855610847
    z: 0.624076128006
    w: 0.475950747728
---
header: 
  seq: 494
  stamp: 
    secs: 1517848286
    nsecs: 206256317
  frame_id: world
pose: 
  position: 
    x: -0.105054147542
    y: -0.429276943207
    z: 0.942902326584
  orientation: 
    x: 0.0445973090827
    y: -0.33856010437
    z: 0.919253349304
    w: 0.195860818028
---
header: 
  seq: 495
  stamp: 
    secs: 1517848286
    nsecs: 214626209
  frame_id: world
pose: 
  position: 
    x: -0.102743037045
    y: -0.430954098701
    z: 0.944977104664
  orientation: 
    x: -0.257918924093
    y: -0.543532252312
    z: 0.651200830936
    w: 0.462588340044
---
header: 
  seq: 496
  stamp: 
    secs: 1517848286
    nsecs: 223154856
  frame_id: world
pose: 
  position: 
    x: -0.100983858109
    y: -0.432637304068
    z: 0.946700274944
  orientation: 
    x: -0.265608370304
    y: -0.547167241573
    z: 0.641994178295
    w: 0.466801524162
---
header: 
  seq: 497
  stamp: 
    secs: 1517848286
    nsecs: 231139890
  frame_id: world
pose: 
  position: 
    x: -0.10098387301
    y: -0.432637304068
    z: 0.946700334549
  orientation: 
    x: -0.265608370304
    y: -0.547167241573
    z: 0.641994178295
    w: 0.466801524162
---
header: 
  seq: 498
  stamp: 
    secs: 1517848286
    nsecs: 240693868
  frame_id: world
pose: 
  position: 
    x: -0.10098387301
    y: -0.432637304068
    z: 0.946700334549
  orientation: 
    x: -0.265608370304
    y: -0.547167241573
    z: 0.641994178295
    w: 0.466801524162
---
header: 
  seq: 499
  stamp: 
    secs: 1517848286
    nsecs: 247860304
  frame_id: world
pose: 
  position: 
    x: -0.0971012786031
    y: -0.436905920506
    z: 0.950299203396
  orientation: 
    x: 0.0677847862244
    y: -0.316040486097
    z: 0.930922091007
    w: 0.170022830367
---
header: 
  seq: 500
  stamp: 
    secs: 1517848286
    nsecs: 256283257
  frame_id: world
pose: 
  position: 
    x: -0.0962009206414
    y: -0.437878042459
    z: 0.951092898846
  orientation: 
    x: -0.285018831491
    y: -0.554723262787
    z: 0.618588626385
    w: 0.477906376123
---
header: 
  seq: 501
  stamp: 
    secs: 1517848286
    nsecs: 264434501
  frame_id: world
pose: 
  position: 
    x: -0.095639847219
    y: -0.438888192177
    z: 0.951560378075
  orientation: 
    x: -0.287432432175
    y: -0.554670274258
    z: 0.618683516979
    w: 0.476397126913
---
header: 
  seq: 502
  stamp: 
    secs: 1517848286
    nsecs: 272580984
  frame_id: world
pose: 
  position: 
    x: -0.0956398397684
    y: -0.438888192177
    z: 0.951560378075
  orientation: 
    x: -0.287432432175
    y: -0.554670274258
    z: 0.618683516979
    w: 0.476397126913
---
header: 
  seq: 503
  stamp: 
    secs: 1517848286
    nsecs: 281062444
  frame_id: world
pose: 
  position: 
    x: -0.0955965593457
    y: -0.440469443798
    z: 0.951474666595
  orientation: 
    x: -0.281887859106
    y: -0.549369335175
    z: 0.634985148907
    w: 0.464248359203
---
header: 
  seq: 504
  stamp: 
    secs: 1517848286
    nsecs: 289503681
  frame_id: world
pose: 
  position: 
    x: -0.0955965667963
    y: -0.440469443798
    z: 0.951474666595
  orientation: 
    x: -0.281887859106
    y: -0.549369335175
    z: 0.634985148907
    w: 0.464248359203
---
header: 
  seq: 505
  stamp: 
    secs: 1517848286
    nsecs: 297892341
  frame_id: world
pose: 
  position: 
    x: -0.0967032983899
    y: -0.441482692957
    z: 0.950445413589
  orientation: 
    x: 0.0437369830906
    y: -0.312991648912
    z: 0.932620763779
    w: 0.174189060926
---
header: 
  seq: 506
  stamp: 
    secs: 1517848286
    nsecs: 306302292
  frame_id: world
pose: 
  position: 
    x: -0.0973808169365
    y: -0.441771745682
    z: 0.949572205544
  orientation: 
    x: -0.275904774666
    y: -0.538160383701
    z: 0.662632465363
    w: 0.441789925098
---
header: 
  seq: 507
  stamp: 
    secs: 1517848286
    nsecs: 314598935
  frame_id: world
pose: 
  position: 
    x: -0.0984865427017
    y: -0.441657632589
    z: 0.948332667351
  orientation: 
    x: -0.306012779474
    y: -0.549957990646
    z: 0.629503428936
    w: 0.455661952496
---
header: 
  seq: 508
  stamp: 
    secs: 1517848286
    nsecs: 322832388
  frame_id: world
pose: 
  position: 
    x: -0.0984865576029
    y: -0.441657632589
    z: 0.948332667351
  orientation: 
    x: -0.306012779474
    y: -0.549957990646
    z: 0.629503428936
    w: 0.455661952496
---
header: 
  seq: 509
  stamp: 
    secs: 1517848286
    nsecs: 330965848
  frame_id: world
pose: 
  position: 
    x: -0.0984865576029
    y: -0.441657632589
    z: 0.948332667351
  orientation: 
    x: -0.306012779474
    y: -0.549957990646
    z: 0.629503428936
    w: 0.455661952496
---
header: 
  seq: 510
  stamp: 
    secs: 1517848286
    nsecs: 339370057
  frame_id: world
pose: 
  position: 
    x: -0.0984865576029
    y: -0.441657632589
    z: 0.948332667351
  orientation: 
    x: -0.306012779474
    y: -0.549957990646
    z: 0.629503428936
    w: 0.455661952496
---
header: 
  seq: 511
  stamp: 
    secs: 1517848286
    nsecs: 347654902
  frame_id: world
pose: 
  position: 
    x: -0.0984865576029
    y: -0.441657632589
    z: 0.948332667351
  orientation: 
    x: -0.306012779474
    y: -0.549957990646
    z: 0.629503428936
    w: 0.455661952496
---
header: 
  seq: 512
  stamp: 
    secs: 1517848286
    nsecs: 356298669
  frame_id: world
pose: 
  position: 
    x: -0.108202695847
    y: -0.439086169004
    z: 0.938358306885
  orientation: 
    x: -0.367545694113
    y: -0.559224307537
    z: 0.598196923733
    w: 0.440838754177
---
header: 
  seq: 513
  stamp: 
    secs: 1517848286
    nsecs: 364678493
  frame_id: world
pose: 
  position: 
    x: -0.11081558466
    y: -0.438140392303
    z: 0.935406684875
  orientation: 
    x: -0.406676054001
    y: -0.576331496239
    z: 0.545118272305
    w: 0.453103542328
---
header: 
  seq: 514
  stamp: 
    secs: 1517848286
    nsecs: 373121488
  frame_id: world
pose: 
  position: 
    x: -0.113708332181
    y: -0.436962962151
    z: 0.932229816914
  orientation: 
    x: -0.390363901854
    y: -0.56144875288
    z: 0.590354084969
    w: 0.428804636002
---
header: 
  seq: 515
  stamp: 
    secs: 1517848286
    nsecs: 381273145
  frame_id: world
pose: 
  position: 
    x: -0.11370832473
    y: -0.436962962151
    z: 0.932229757309
  orientation: 
    x: -0.390363901854
    y: -0.56144875288
    z: 0.590354084969
    w: 0.428804636002
---
header: 
  seq: 516
  stamp: 
    secs: 1517848286
    nsecs: 390821576
  frame_id: world
pose: 
  position: 
    x: -0.120119385421
    y: -0.434209913015
    z: 0.925222277641
  orientation: 
    x: -0.389287084341
    y: -0.54837679863
    z: 0.622725427151
    w: 0.399939537048
---
header: 
  seq: 517
  stamp: 
    secs: 1517848286
    nsecs: 397684998
  frame_id: world
pose: 
  position: 
    x: -0.123669438064
    y: -0.432542353868
    z: 0.921330571175
  orientation: 
    x: -0.409868746996
    y: -0.556661248207
    z: 0.601628005505
    w: 0.400224387646
---
header: 
  seq: 518
  stamp: 
    secs: 1517848286
    nsecs: 406025234
  frame_id: world
pose: 
  position: 
    x: -0.127560183406
    y: -0.430683583021
    z: 0.917291104794
  orientation: 
    x: -0.423171967268
    y: -0.561581611633
    z: 0.590140163898
    w: 0.396593391895
---
header: 
  seq: 519
  stamp: 
    secs: 1517848286
    nsecs: 414565580
  frame_id: world
pose: 
  position: 
    x: -0.131625726819
    y: -0.428799659014
    z: 0.913138389587
  orientation: 
    x: -0.41934299469
    y: -0.553647875786
    z: 0.609501361847
    w: 0.382274448872
---
header: 
  seq: 520
  stamp: 
    secs: 1517848286
    nsecs: 422989876
  frame_id: world
pose: 
  position: 
    x: -0.135882243514
    y: -0.426592975855
    z: 0.908832967281
  orientation: 
    x: -0.434391528368
    y: -0.560833752155
    z: 0.592936873436
    w: 0.381045043468
---
header: 
  seq: 521
  stamp: 
    secs: 1517848286
    nsecs: 431057262
  frame_id: world
pose: 
  position: 
    x: -0.135882243514
    y: -0.426592975855
    z: 0.908832967281
  orientation: 
    x: -0.434391528368
    y: -0.560833752155
    z: 0.592936873436
    w: 0.381045043468
---
header: 
  seq: 522
  stamp: 
    secs: 1517848286
    nsecs: 439678880
  frame_id: world
pose: 
  position: 
    x: -0.145276769996
    y: -0.421874523163
    z: 0.900094270706
  orientation: 
    x: -0.456789255142
    y: -0.572607159615
    z: 0.567394733429
    w: 0.376201987267
---
header: 
  seq: 523
  stamp: 
    secs: 1517848286
    nsecs: 448304781
  frame_id: world
pose: 
  position: 
    x: -0.150141835213
    y: -0.419350355864
    z: 0.895809233189
  orientation: 
    x: -0.434415578842
    y: -0.551248252392
    z: 0.618935465813
    w: 0.352600961924
---
header: 
  seq: 524
  stamp: 
    secs: 1517848286
    nsecs: 456309183
  frame_id: world
pose: 
  position: 
    x: -0.155381977558
    y: -0.41669601202
    z: 0.891510665417
  orientation: 
    x: -0.471312850714
    y: -0.580735146999
    z: 0.552655041218
    w: 0.367672950029
---
header: 
  seq: 525
  stamp: 
    secs: 1517848286
    nsecs: 464252002
  frame_id: world
pose: 
  position: 
    x: -0.155381977558
    y: -0.416695982218
    z: 0.891510665417
  orientation: 
    x: -0.471312850714
    y: -0.580735146999
    z: 0.552655041218
    w: 0.367672950029
---
header: 
  seq: 526
  stamp: 
    secs: 1517848286
    nsecs: 472590333
  frame_id: world
pose: 
  position: 
    x: -0.155381977558
    y: -0.416695982218
    z: 0.891510665417
  orientation: 
    x: -0.471312850714
    y: -0.580735146999
    z: 0.552655041218
    w: 0.367672950029
---
header: 
  seq: 527
  stamp: 
    secs: 1517848286
    nsecs: 481171592
  frame_id: world
pose: 
  position: 
    x: -0.172025367618
    y: -0.408440947533
    z: 0.880079329014
  orientation: 
    x: -0.465984135866
    y: -0.570727586746
    z: 0.586885750294
    w: 0.335699051619
---
header: 
  seq: 528
  stamp: 
    secs: 1517848286
    nsecs: 491099635
  frame_id: world
pose: 
  position: 
    x: -0.172025367618
    y: -0.408440947533
    z: 0.880079329014
  orientation: 
    x: -0.465984135866
    y: -0.570727586746
    z: 0.586885750294
    w: 0.335699051619
---
header: 
  seq: 529
  stamp: 
    secs: 1517848286
    nsecs: 497890751
  frame_id: world
pose: 
  position: 
    x: -0.183746486902
    y: -0.40250274539
    z: 0.87388497591
  orientation: 
    x: -0.461659163237
    y: -0.560820996761
    z: 0.613534390926
    w: 0.309719830751
---
header: 
  seq: 530
  stamp: 
    secs: 1517848286
    nsecs: 506177958
  frame_id: world
pose: 
  position: 
    x: -0.18983861804
    y: -0.399401605129
    z: 0.871261239052
  orientation: 
    x: -0.455071359873
    y: -0.550347447395
    z: 0.636054217815
    w: 0.292340070009
---
header: 
  seq: 531
  stamp: 
    secs: 1517848286
    nsecs: 514657527
  frame_id: world
pose: 
  position: 
    x: -0.196209430695
    y: -0.396084934473
    z: 0.869111359119
  orientation: 
    x: -0.477375149727
    y: -0.570261657238
    z: 0.600858032703
    w: 0.29306024313
---
header: 
  seq: 532
  stamp: 
    secs: 1517848286
    nsecs: 523007336
  frame_id: world
pose: 
  position: 
    x: -0.196209415793
    y: -0.396084934473
    z: 0.869111359119
  orientation: 
    x: -0.477375149727
    y: -0.570261657238
    z: 0.600858032703
    w: 0.29306024313
---
header: 
  seq: 533
  stamp: 
    secs: 1517848286
    nsecs: 531064694
  frame_id: world
pose: 
  position: 
    x: -0.196209415793
    y: -0.396084934473
    z: 0.869111359119
  orientation: 
    x: -0.477375149727
    y: -0.570261657238
    z: 0.600858032703
    w: 0.29306024313
---
header: 
  seq: 534
  stamp: 
    secs: 1517848286
    nsecs: 539435372
  frame_id: world
pose: 
  position: 
    x: -0.196209415793
    y: -0.396084934473
    z: 0.869111359119
  orientation: 
    x: -0.477375149727
    y: -0.570261657238
    z: 0.600858032703
    w: 0.29306024313
---
header: 
  seq: 535
  stamp: 
    secs: 1517848286
    nsecs: 547752209
  frame_id: world
pose: 
  position: 
    x: -0.196209415793
    y: -0.396084934473
    z: 0.869111359119
  orientation: 
    x: -0.477375149727
    y: -0.570261657238
    z: 0.600858032703
    w: 0.29306024313
---
header: 
  seq: 536
  stamp: 
    secs: 1517848286
    nsecs: 555961469
  frame_id: world
pose: 
  position: 
    x: -0.196209415793
    y: -0.396084934473
    z: 0.869111359119
  orientation: 
    x: -0.477375149727
    y: -0.570261657238
    z: 0.600858032703
    w: 0.29306024313
---
header: 
  seq: 537
  stamp: 
    secs: 1517848286
    nsecs: 564367069
  frame_id: world
pose: 
  position: 
    x: -0.196209415793
    y: -0.396084934473
    z: 0.869111359119
  orientation: 
    x: -0.477375149727
    y: -0.570261657238
    z: 0.600858032703
    w: 0.29306024313
---
header: 
  seq: 538
  stamp: 
    secs: 1517848286
    nsecs: 572706864
  frame_id: world
pose: 
  position: 
    x: -0.196209415793
    y: -0.396084934473
    z: 0.869111359119
  orientation: 
    x: -0.477375149727
    y: -0.570261657238
    z: 0.600858032703
    w: 0.29306024313
---
header: 
  seq: 539
  stamp: 
    secs: 1517848286
    nsecs: 581386463
  frame_id: world
pose: 
  position: 
    x: -0.247426301241
    y: -0.368321329355
    z: 0.870944976807
  orientation: 
    x: -0.0368678234518
    y: 0.11203366518
    z: 0.987987458706
    w: -0.09985037148
---
header: 
  seq: 540
  stamp: 
    secs: 1517848286
    nsecs: 589705692
  frame_id: world
pose: 
  position: 
    x: -0.25467133522
    y: -0.364270180464
    z: 0.873445034027
  orientation: 
    x: -0.0418852418661
    y: 0.12495778501
    z: 0.985435426235
    w: -0.107463397086
---
header: 
  seq: 541
  stamp: 
    secs: 1517848286
    nsecs: 597543636
  frame_id: world
pose: 
  position: 
    x: -0.254671365023
    y: -0.364270150661
    z: 0.873445034027
  orientation: 
    x: -0.0418852418661
    y: 0.12495778501
    z: 0.985435426235
    w: -0.107463397086
---
header: 
  seq: 542
  stamp: 
    secs: 1517848286
    nsecs: 606054352
  frame_id: world
pose: 
  position: 
    x: -0.254671365023
    y: -0.364270150661
    z: 0.873445034027
  orientation: 
    x: -0.0418852418661
    y: 0.12495778501
    z: 0.985435426235
    w: -0.107463397086
---
header: 
  seq: 543
  stamp: 
    secs: 1517848286
    nsecs: 614602284
  frame_id: world
pose: 
  position: 
    x: -0.277064532042
    y: -0.351444274187
    z: 0.884120166302
  orientation: 
    x: 0.0206901002675
    y: 0.261890113354
    z: 0.951758444309
    w: -0.158560097218
---
header: 
  seq: 544
  stamp: 
    secs: 1517848286
    nsecs: 622626830
  frame_id: world
pose: 
  position: 
    x: -0.277064532042
    y: -0.351444274187
    z: 0.884120166302
  orientation: 
    x: 0.0206901002675
    y: 0.261890113354
    z: 0.951758444309
    w: -0.158560097218
---
header: 
  seq: 545
  stamp: 
    secs: 1517848286
    nsecs: 631226459
  frame_id: world
pose: 
  position: 
    x: -0.292149156332
    y: -0.342748194933
    z: 0.893624961376
  orientation: 
    x: 0.0132860895246
    y: 0.287121027708
    z: 0.942830920219
    w: -0.168685778975
---
header: 
  seq: 546
  stamp: 
    secs: 1517848286
    nsecs: 639324264
  frame_id: world
pose: 
  position: 
    x: -0.292149156332
    y: -0.342748194933
    z: 0.893624961376
  orientation: 
    x: 0.0132860895246
    y: 0.287121027708
    z: 0.942830920219
    w: -0.168685778975
---
header: 
  seq: 547
  stamp: 
    secs: 1517848286
    nsecs: 650041493
  frame_id: world
pose: 
  position: 
    x: -0.292149156332
    y: -0.342748194933
    z: 0.893624961376
  orientation: 
    x: 0.0132860895246
    y: 0.287121027708
    z: 0.942830920219
    w: -0.168685778975
---
header: 
  seq: 548
  stamp: 
    secs: 1517848286
    nsecs: 656138925
  frame_id: world
pose: 
  position: 
    x: -0.317885547876
    y: -0.328385859728
    z: 0.911309599876
  orientation: 
    x: -0.06038049981
    y: 0.251834452152
    z: 0.951141953468
    w: -0.168115004897
---
header: 
  seq: 549
  stamp: 
    secs: 1517848286
    nsecs: 664496711
  frame_id: world
pose: 
  position: 
    x: -0.324936538935
    y: -0.32433706522
    z: 0.917615294456
  orientation: 
    x: -0.0824757739902
    y: 0.240827739239
    z: 0.951823830605
    w: -0.170971736312
---
header: 
  seq: 550
  stamp: 
    secs: 1517848286
    nsecs: 672744279
  frame_id: world
pose: 
  position: 
    x: -0.332265675068
    y: -0.320149034262
    z: 0.924182474613
  orientation: 
    x: -0.0579857826233
    y: 0.295057028532
    z: 0.936197340488
    w: -0.181971639395
---
header: 
  seq: 551
  stamp: 
    secs: 1517848286
    nsecs: 681259353
  frame_id: world
pose: 
  position: 
    x: -0.340663462877
    y: -0.315805613995
    z: 0.931379914284
  orientation: 
    x: -0.064296297729
    y: 0.307633072138
    z: 0.930959701538
    w: -0.185854628682
---
header: 
  seq: 552
  stamp: 
    secs: 1517848286
    nsecs: 689888444
  frame_id: world
pose: 
  position: 
    x: -0.348899334669
    y: -0.311539798975
    z: 0.93871319294
  orientation: 
    x: -0.0557638183236
    y: 0.340550512075
    z: 0.918843924999
    w: -0.191420316696
---
header: 
  seq: 553
  stamp: 
    secs: 1517848286
    nsecs: 697783557
  frame_id: world
pose: 
  position: 
    x: -0.356775224209
    y: -0.307550698519
    z: 0.946252405643
  orientation: 
    x: -0.101108379662
    y: 0.302146166563
    z: 0.929042816162
    w: -0.188054397702
---
header: 
  seq: 554
  stamp: 
    secs: 1517848286
    nsecs: 706115947
  frame_id: world
pose: 
  position: 
    x: -0.365502029657
    y: -0.303179174662
    z: 0.954306423664
  orientation: 
    x: -0.0713987722993
    y: 0.361700028181
    z: 0.90889698267
    w: -0.19488863647
---
header: 
  seq: 555
  stamp: 
    secs: 1517848286
    nsecs: 714510454
  frame_id: world
pose: 
  position: 
    x: -0.374117314816
    y: -0.298836708069
    z: 0.962148964405
  orientation: 
    x: -0.0669492408633
    y: 0.388593733311
    z: 0.897915542126
    w: -0.195602983236
---
header: 
  seq: 556
  stamp: 
    secs: 1517848286
    nsecs: 723019254
  frame_id: world
pose: 
  position: 
    x: -0.382766783237
    y: -0.295085281134
    z: 0.970274686813
  orientation: 
    x: -0.116995826364
    y: 0.342337191105
    z: 0.911807179451
    w: -0.194229349494
---
header: 
  seq: 557
  stamp: 
    secs: 1517848286
    nsecs: 731969474
  frame_id: world
pose: 
  position: 
    x: -0.391237258911
    y: -0.291881918907
    z: 0.978346586227
  orientation: 
    x: -0.334865063429
    y: 0.00736351544037
    z: 0.927155256271
    w: -0.16791190207
---
header: 
  seq: 558
  stamp: 
    secs: 1517848286
    nsecs: 739952300
  frame_id: world
pose: 
  position: 
    x: -0.400403320789
    y: -0.287163108587
    z: 0.986932277679
  orientation: 
    x: -0.0493626855314
    y: 0.463960170746
    z: 0.862535178661
    w: -0.195799291134
---
header: 
  seq: 559
  stamp: 
    secs: 1517848286
    nsecs: 748050089
  frame_id: world
pose: 
  position: 
    x: -0.408990681171
    y: -0.283937066793
    z: 0.994862675667
  orientation: 
    x: -0.170342162251
    y: 0.321325540543
    z: 0.910462617874
    w: -0.196954831481
---
header: 
  seq: 560
  stamp: 
    secs: 1517848286
    nsecs: 756160854
  frame_id: world
pose: 
  position: 
    x: -0.418020308018
    y: -0.280515491962
    z: 1.00275051594
  orientation: 
    x: -0.0732597410679
    y: 0.472190618515
    z: 0.856344103813
    w: -0.195816218853
---
header: 
  seq: 561
  stamp: 
    secs: 1517848286
    nsecs: 764485654
  frame_id: world
pose: 
  position: 
    x: -0.426685452461
    y: -0.277036726475
    z: 1.01073479652
  orientation: 
    x: -0.141466259956
    y: 0.395445227623
    z: 0.885489523411
    w: -0.198793366551
---
header: 
  seq: 562
  stamp: 
    secs: 1517848286
    nsecs: 772765030
  frame_id: world
pose: 
  position: 
    x: -0.435529887676
    y: -0.273816138506
    z: 1.01869606972
  orientation: 
    x: -0.183456793427
    y: 0.349641442299
    z: 0.896580576897
    w: -0.200593367219
---
header: 
  seq: 563
  stamp: 
    secs: 1517848286
    nsecs: 781417091
  frame_id: world
pose: 
  position: 
    x: -0.444821625948
    y: -0.270380318165
    z: 1.0261567831
  orientation: 
    x: -0.17086045444
    y: 0.384690314531
    z: 0.884747862816
    w: -0.200103566051
---
header: 
  seq: 564
  stamp: 
    secs: 1517848286
    nsecs: 789531761
  frame_id: world
pose: 
  position: 
    x: -0.453031986952
    y: -0.267478346825
    z: 1.03378856182
  orientation: 
    x: -0.197638332844
    y: 0.355325371027
    z: 0.891422092915
    w: -0.200124070048
---
header: 
  seq: 565
  stamp: 
    secs: 1517848286
    nsecs: 797959343
  frame_id: world
pose: 
  position: 
    x: -0.462064534426
    y: -0.264892250299
    z: 1.04068124294
  orientation: 
    x: -0.299219429493
    y: 0.212875813246
    z: 0.906922399998
    w: -0.206503137946
---
header: 
  seq: 566
  stamp: 
    secs: 1517848286
    nsecs: 806396780
  frame_id: world
pose: 
  position: 
    x: -0.471206188202
    y: -0.261643081903
    z: 1.04765677452
  orientation: 
    x: -0.169492542744
    y: 0.430755406618
    z: 0.863922476768
    w: -0.19839335978
---
header: 
  seq: 567
  stamp: 
    secs: 1517848286
    nsecs: 814953324
  frame_id: world
pose: 
  position: 
    x: -0.480328708887
    y: -0.258817017078
    z: 1.05417740345
  orientation: 
    x: -0.197903424501
    y: 0.406521975994
    z: 0.869217336178
    w: -0.200088918209
---
header: 
  seq: 568
  stamp: 
    secs: 1517848286
    nsecs: 822740886
  frame_id: world
pose: 
  position: 
    x: -0.489903986454
    y: -0.256015837193
    z: 1.06033170223
  orientation: 
    x: -0.205595627427
    y: 0.4113920331
    z: 0.865426898003
    w: -0.198804721236
---
header: 
  seq: 569
  stamp: 
    secs: 1517848286
    nsecs: 831191394
  frame_id: world
pose: 
  position: 
    x: -0.499194264412
    y: -0.253261327744
    z: 1.06631946564
  orientation: 
    x: -0.247381076217
    y: 0.367448538542
    z: 0.873238682747
    w: -0.203072339296
---
header: 
  seq: 570
  stamp: 
    secs: 1517848286
    nsecs: 840218518
  frame_id: world
pose: 
  position: 
    x: -0.507716298103
    y: -0.250902295113
    z: 1.07166731358
  orientation: 
    x: -0.20134305954
    y: 0.449104964733
    z: 0.848809838295
    w: -0.193100452423
---
header: 
  seq: 571
  stamp: 
    secs: 1517848286
    nsecs: 847908864
  frame_id: world
pose: 
  position: 
    x: -0.51664352417
    y: -0.248424902558
    z: 1.07693767548
  orientation: 
    x: -0.202563598752
    y: 0.463485270739
    z: 0.841511845589
    w: -0.189755767584
---
header: 
  seq: 572
  stamp: 
    secs: 1517848286
    nsecs: 856391373
  frame_id: world
pose: 
  position: 
    x: -0.526396334171
    y: -0.245763972402
    z: 1.08193337917
  orientation: 
    x: -0.284801781178
    y: 0.364248454571
    z: 0.863338589668
    w: -0.202132791281
---
header: 
  seq: 573
  stamp: 
    secs: 1517848286
    nsecs: 864386917
  frame_id: world
pose: 
  position: 
    x: -0.535344421864
    y: -0.243479937315
    z: 1.0862967968
  orientation: 
    x: -0.308781087399
    y: 0.343479692936
    z: 0.863041520119
    w: -0.204537168145
---
header: 
  seq: 574
  stamp: 
    secs: 1517848286
    nsecs: 872904496
  frame_id: world
pose: 
  position: 
    x: -0.54437148571
    y: -0.241329714656
    z: 1.09034979343
  orientation: 
    x: -0.259324729443
    y: 0.436436206102
    z: 0.840565860271
    w: -0.189006105065
---
header: 
  seq: 575
  stamp: 
    secs: 1517848286
    nsecs: 881145497
  frame_id: world
pose: 
  position: 
    x: -0.552950799465
    y: -0.239570274949
    z: 1.09358906746
  orientation: 
    x: -0.269027024508
    y: 0.436254739761
    z: 0.83806759119
    w: -0.186946392059
---
header: 
  seq: 576
  stamp: 
    secs: 1517848286
    nsecs: 889834375
  frame_id: world
pose: 
  position: 
    x: -0.56188595295
    y: -0.237253680825
    z: 1.09691905975
  orientation: 
    x: -0.227120131254
    y: 0.509582996368
    z: 0.812147796154
    w: -0.170756191015
---
header: 
  seq: 577
  stamp: 
    secs: 1517848286
    nsecs: 898269429
  frame_id: world
pose: 
  position: 
    x: -0.570780217648
    y: -0.235267236829
    z: 1.09960472584
  orientation: 
    x: -0.255659341812
    y: 0.48601514101
    z: 0.817253172398
    w: -0.174714326859
---
header: 
  seq: 578
  stamp: 
    secs: 1517848286
    nsecs: 906318579
  frame_id: world
pose: 
  position: 
    x: -0.579579293728
    y: -0.233395263553
    z: 1.10180938244
  orientation: 
    x: -0.266245901585
    y: 0.484778881073
    z: 0.814759731293
    w: -0.173980399966
---
header: 
  seq: 579
  stamp: 
    secs: 1517848286
    nsecs: 914686963
  frame_id: world
pose: 
  position: 
    x: -0.588381588459
    y: -0.231389835477
    z: 1.10367286205
  orientation: 
    x: -0.259948909283
    y: 0.50572681427
    z: 0.805344045162
    w: -0.16759493947
---
header: 
  seq: 580
  stamp: 
    secs: 1517848286
    nsecs: 923361357
  frame_id: world
pose: 
  position: 
    x: -0.597073197365
    y: -0.229318201542
    z: 1.10501945019
  orientation: 
    x: -0.514417529106
    y: 0.0692500323057
    z: 0.818157792091
    w: -0.247380554676
---
header: 
  seq: 581
  stamp: 
    secs: 1517848286
    nsecs: 931124984
  frame_id: world
pose: 
  position: 
    x: -0.605484247208
    y: -0.227534681559
    z: 1.10572016239
  orientation: 
    x: -0.362650185823
    y: 0.377651959658
    z: 0.828382253647
    w: -0.199115097523
---
header: 
  seq: 582
  stamp: 
    secs: 1517848286
    nsecs: 939495408
  frame_id: world
pose: 
  position: 
    x: -0.61317974329
    y: -0.226636782289
    z: 1.10725641251
  orientation: 
    x: -0.591480493546
    y: -0.129456818104
    z: 0.749812602997
    w: -0.266782611609
---
header: 
  seq: 583
  stamp: 
    secs: 1517848286
    nsecs: 947803885
  frame_id: world
pose: 
  position: 
    x: -0.622226834297
    y: -0.224211245775
    z: 1.10784399509
  orientation: 
    x: -0.619009196758
    y: -0.240197241306
    z: 0.693935632706
    w: -0.278543174267
---
header: 
  seq: 584
  stamp: 
    secs: 1517848286
    nsecs: 957236099
  frame_id: world
pose: 
  position: 
    x: -0.630515575409
    y: -0.222885772586
    z: 1.10679042339
  orientation: 
    x: -0.632664322853
    y: -0.524849891663
    z: 0.499761521816
    w: -0.272959560156
---
header: 
  seq: 585
  stamp: 
    secs: 1517848286
    nsecs: 964364905
  frame_id: world
pose: 
  position: 
    x: -0.640174031258
    y: -0.221730902791
    z: 1.10470688343
  orientation: 
    x: -0.631087839603
    y: -0.527268409729
    z: 0.497734904289
    w: -0.275637626648
---
header: 
  seq: 586
  stamp: 
    secs: 1517848286
    nsecs: 972598121
  frame_id: world
pose: 
  position: 
    x: -0.648754358292
    y: -0.219813212752
    z: 1.10353469849
  orientation: 
    x: -0.613720655441
    y: -0.21728079021
    z: 0.700837433338
    w: -0.29148426652
---
header: 
  seq: 587
  stamp: 
    secs: 1517848286
    nsecs: 981281550
  frame_id: world
pose: 
  position: 
    x: -0.657075583935
    y: -0.219005659223
    z: 1.10142576694
  orientation: 
    x: -0.446628570557
    y: 0.269725739956
    z: 0.819041848183
    w: -0.23862425983
---
header: 
  seq: 588
  stamp: 
    secs: 1517848286
    nsecs: 989750309
  frame_id: world
pose: 
  position: 
    x: -0.665163695812
    y: -0.217693701386
    z: 1.09888648987
  orientation: 
    x: -0.553242862225
    y: 0.00672390172258
    z: 0.782900929451
    w: -0.28450524807
---
header: 
  seq: 589
  stamp: 
    secs: 1517848286
    nsecs: 997716536
  frame_id: world
pose: 
  position: 
    x: -0.67347073555
    y: -0.216850057244
    z: 1.09582865238
  orientation: 
    x: -0.418106198311
    y: 0.321933060884
    z: 0.814991772175
    w: -0.239446818829
---
header: 
  seq: 590
  stamp: 
    secs: 1517848287
    nsecs:   6128717
  frame_id: world
pose: 
  position: 
    x: -0.681935846806
    y: -0.216315820813
    z: 1.09218120575
  orientation: 
    x: -0.609803974628
    y: -0.270961910486
    z: 0.678280174732
    w: -0.307660132647
---
header: 
  seq: 591
  stamp: 
    secs: 1517848287
    nsecs:  14602947
  frame_id: world
pose: 
  position: 
    x: -0.68971914053
    y: -0.215748220682
    z: 1.08835089207
  orientation: 
    x: -0.595058619976
    y: -0.61984193325
    z: 0.427427381277
    w: -0.28108227253
---
header: 
  seq: 592
  stamp: 
    secs: 1517848287
    nsecs:  23063892
  frame_id: world
pose: 
  position: 
    x: -0.698953747749
    y: -0.214703887701
    z: 1.0851020813
  orientation: 
    x: -0.494125515223
    y: 0.155355811119
    z: 0.806359410286
    w: -0.285462796688
---
header: 
  seq: 593
  stamp: 
    secs: 1517848287
    nsecs:  31175719
  frame_id: world
pose: 
  position: 
    x: -0.706986188889
    y: -0.214015305042
    z: 1.08007371426
  orientation: 
    x: -0.46237206459
    y: 0.223106652498
    z: 0.809443891048
    w: -0.285019755363
---
header: 
  seq: 594
  stamp: 
    secs: 1517848287
    nsecs:  39734760
  frame_id: world
pose: 
  position: 
    x: -0.715036988258
    y: -0.213341161609
    z: 1.07479226589
  orientation: 
    x: -0.58534604311
    y: -0.222280204296
    z: 0.705584764481
    w: -0.331830829382
---
header: 
  seq: 595
  stamp: 
    secs: 1517848287
    nsecs:  48018373
  frame_id: world
pose: 
  position: 
    x: -0.724182188511
    y: -0.213925808668
    z: 1.06942200661
  orientation: 
    x: -0.463103353977
    y: 0.212399125099
    z: 0.807547271252
    w: -0.297135055065
---
header: 
  seq: 596
  stamp: 
    secs: 1517848287
    nsecs:  56149834
  frame_id: world
pose: 
  position: 
    x: -0.731275379658
    y: -0.213109850883
    z: 1.06355500221
  orientation: 
    x: -0.516401946545
    y: 0.0462669692934
    z: 0.789826750755
    w: -0.327661335468
---
header: 
  seq: 597
  stamp: 
    secs: 1517848287
    nsecs:  64542378
  frame_id: world
pose: 
  position: 
    x: -0.739924192429
